City,Lat,Lng,Max Temp,Humidity,Cloudiness,Wind Speed,Country,Date
Mataura,-46.1927,168.8643,42.01,97,100,3.0,NZ,1620402556
Husavik,66.0449,-17.3389,35.6,60,75,14.97,IS,1620402556
Mbanza-Ngungu,-5.25,14.8667,74.52,88,100,4.76,CD,1620402557
Puri,19.8,85.85,84.99,78,40,5.75,IN,1620402557
Borås,57.721,12.9401,48.0,65,40,4.61,SE,1620402380
Punta Arenas,-53.15,-70.9167,42.8,87,0,5.75,CL,1620402557
Port Hardy,50.6996,-127.4199,46.4,76,40,4.61,CA,1620402557
Bumba,2.1833,22.4667,76.73,81,93,3.0,CD,1620402558
Haines Junction,60.7522,-137.5108,39.2,75,90,2.95,CA,1620402558
Gurupá,-1.405,-51.64,90.45,50,30,3.44,BR,1620402558
Ubari,26.5921,12.7805,103.96,5,0,10.63,LY,1620402559
Airai,-8.9266,125.4092,58.64,95,55,2.1,TL,1620402559
Cabo San Lucas,22.8909,-109.9124,80.01,27,1,3.44,MX,1620402296
Puerto Ayora,-0.7393,-90.3518,80.6,65,20,13.8,EC,1620402559
Ojinaga,29.5667,-104.4167,82.4,30,1,6.91,MX,1620402559
Svetlaya,46.5389,138.3297,40.51,94,100,11.68,RU,1620402560
Ushuaia,-54.8,-68.3,42.8,93,75,6.91,AR,1620402408
Mahébourg,-20.4081,57.7,73.4,83,40,3.44,MU,1620402560
Vaini,-21.2,-175.2,75.2,83,75,12.66,TO,1620402560
Qaanaaq,77.484,-69.3632,26.78,85,100,4.7,GL,1620402560
Busselton,-33.65,115.3333,53.01,97,93,5.48,AU,1620402561
Dikson,73.5069,80.5464,23.85,93,40,14.03,RU,1620402561
Trenggalek,-8.05,111.7167,75.07,91,94,0.98,ID,1620402561
Port Augusta,-32.5,137.7667,62.01,54,75,5.75,AU,1620402561
Bengkulu,-3.8004,102.2655,78.3,87,100,4.43,ID,1620402561
Kavieng,-2.5744,150.7967,82.51,78,90,14.7,PG,1620402562
Lima,-12.0432,-77.0282,70.0,73,90,10.36,PE,1620402301
The Valley,18.217,-63.0578,84.2,65,40,17.27,AI,1620402562
Boende,-0.2167,20.8667,77.83,83,86,1.23,CD,1620402562
Rawson,-43.3002,-65.1023,62.01,43,9,22.3,AR,1620402563
Adrar,20.5022,-10.0711,97.93,9,0,6.08,MR,1620402563
Saskylakh,71.9167,114.0833,14.41,99,91,5.44,RU,1620402563
Yellowknife,62.456,-114.3525,45.0,45,20,11.5,CA,1620402522
Plettenberg Bay,-34.0527,23.3716,61.29,84,40,12.62,ZA,1620402563
Puerto del Rosario,28.5004,-13.8627,73.4,68,20,16.11,ES,1620402563
Albany,42.6001,-73.9662,63.0,27,72,5.35,US,1620402543
Lata,40.1629,-8.3327,78.01,72,10,1.99,PT,1620402564
Atuona,-9.8,-139.0333,80.31,70,30,20.62,PF,1620402564
Isangel,-19.55,169.2667,78.8,83,20,9.22,VU,1620402564
Mersing,2.4312,103.8405,77.0,100,99,5.75,MY,1620402564
Ribeira Grande,38.5167,-28.7,64.4,94,75,27.63,PT,1620402565
Leningradskiy,69.3833,178.4167,4.39,96,94,4.72,RU,1620402565
Norman Wells,65.282,-126.8329,37.4,70,75,8.05,CA,1620402565
Windsor,42.3001,-83.0165,55.99,62,40,5.75,CA,1620402374
Mirny,62.5353,113.9611,32.76,87,8,2.53,RU,1620402565
Dunedin,-45.8742,170.5036,51.01,97,100,2.98,NZ,1620402566
Fagernes,60.9858,9.2324,40.66,69,92,1.59,NO,1620402566
New Norfolk,-42.7826,147.0587,57.99,79,100,1.01,AU,1620402566
Kysyl-Syr,63.8986,122.7617,30.06,96,85,4.32,RU,1620402566
Rikitea,-23.1203,-134.9692,78.04,77,82,12.28,PF,1620402567
Iqaluit,63.7506,-68.5145,32.0,86,90,12.66,CA,1620402454
Avarua,-21.2078,-159.775,73.4,78,90,8.05,CK,1620402567
Nikolskoye,59.7035,30.7861,46.99,81,75,4.47,RU,1620402567
Berlevåg,70.8578,29.0864,35.6,75,75,29.93,NO,1620402567
Caborca,30.5838,-111.101,80.04,15,0,7.09,MX,1620402568
Jizan,17.3333,42.6667,91.4,55,40,9.22,SA,1620402568
Hobart,-42.8794,147.3294,59.0,82,100,3.44,AU,1620402514
Nhulunbuy,-12.2333,136.7667,75.2,83,9,6.91,AU,1620402568
Okitipupa,6.5047,4.7839,84.85,67,85,7.16,NG,1620402568
Nanortalik,60.1432,-45.2371,36.82,77,100,7.31,GL,1620402569
Hithadhoo,-0.6,73.0833,85.24,71,36,6.93,MV,1620402569
Vaitape,-16.5167,-151.75,82.17,65,73,12.71,PF,1620402569
Paredon,16.0333,-93.8667,85.8,60,93,3.29,MX,1620402569
Gorontalo,0.5412,123.0595,75.25,96,100,2.98,ID,1620402570
East London,-33.0153,27.9116,71.6,64,0,11.5,ZA,1620402570
Marang,5.2056,103.2059,80.6,94,20,2.3,MY,1620402570
Saint George,37.1041,-113.5841,80.01,20,0,6.8,US,1620402433
Honningsvåg,70.9821,25.9704,33.8,80,75,20.71,NO,1620402570
Asahikawa,43.7678,142.3703,55.06,59,100,2.53,JP,1620402571
Ust-Nera,64.5667,143.2,32.41,97,100,3.83,RU,1620402571
Klaksvík,62.2266,-6.589,39.2,56,40,13.8,FO,1620402571
Cidreira,-30.1811,-50.2056,63.91,59,8,13.76,BR,1620402571
Coahuayana Viejo,18.7333,-103.6833,78.8,53,40,3.74,MX,1620402572
Lebu,-37.6167,-73.65,56.95,70,100,3.44,CL,1620402572
Bambous Virieux,-20.3428,57.7575,73.4,83,40,3.44,MU,1620402572
Maniitsoq,65.4167,-52.9,34.32,82,8,11.03,GL,1620402572
Pevek,69.7008,170.3133,2.25,97,89,6.11,RU,1620402573
Jamestown,42.097,-79.2353,42.01,93,90,11.5,US,1620402296
Carnarvon,-24.8667,113.6333,68.0,77,1,13.8,AU,1620402409
Kavaratti,10.5669,72.642,85.46,65,88,2.06,IN,1620402573
Thompson,55.7435,-97.8558,33.8,60,40,12.66,CA,1620402573
Kulhudhuffushi,6.6221,73.07,86.11,66,64,5.1,MV,1620402573
Longyearbyen,78.2186,15.6401,23.0,63,20,3.44,SJ,1620402574
Provideniya,64.3833,-173.3,30.87,66,8,7.18,RU,1620402574
Saint Anthony,45.0205,-93.218,51.01,43,1,11.5,US,1620402574
Lompoc,34.6391,-120.4579,51.8,93,21,8.05,US,1620402498
Darhan,49.4867,105.9228,42.28,46,100,3.58,MN,1620402574
El Alto,-4.2714,-81.2147,71.6,73,75,18.41,PE,1620402575
Fuquay-Varina,35.5843,-78.8,59.0,74,98,5.21,US,1620402575
Castro,-24.7911,-50.0119,61.2,74,94,6.17,BR,1620402575
Brae,60.3964,-1.353,42.8,81,40,2.3,GB,1620402576
Lobito,-12.3481,13.5456,81.19,77,84,5.55,AO,1620402576
Chokurdakh,70.6333,147.9167,3.99,99,47,2.53,RU,1620402576
Acapulco de Juárez,16.8634,-99.8901,82.4,69,90,4.61,MX,1620402417
Pisco,-13.7,-76.2167,69.8,78,75,4.61,PE,1620402576
Arrondissement de Morlaix,48.5833,-4.0,57.2,71,75,12.66,FR,1620402577
Shubarkuduk,49.1447,56.4872,53.02,71,58,5.7,KZ,1620402577
Tuktoyaktuk,69.4541,-133.0374,21.2,86,90,18.41,CA,1620402577
Ostrovnoy,68.0531,39.5131,35.42,98,100,14.03,RU,1620402577
Karakol,42.4907,78.3936,53.82,81,49,2.57,KG,1620402578
Ma’anshan,31.6957,118.4983,66.2,82,0,2.24,CN,1620402578
Kovdor,67.5662,30.4758,32.29,92,100,8.32,RU,1620402578
Chongoyape,-6.6406,-79.3892,71.6,68,75,19.57,PE,1620402578
Saint-Philippe,-21.3585,55.7679,73.4,68,40,9.22,RE,1620402579
Najrān,17.4924,44.1277,89.6,15,75,11.5,SA,1620402579
George Town,5.4112,100.3354,84.2,84,20,4.61,MY,1620402579
Hilo,19.7297,-155.09,73.4,78,90,4.61,US,1620402579
Buala,-8.145,159.5921,81.3,85,100,9.24,SB,1620402580
Bonaventure,48.0457,-65.4926,42.8,75,100,8.05,CA,1620402580
Mar del Plata,-38.0023,-57.5575,60.8,55,40,8.05,AR,1620402347
Bonthe,7.5264,-12.505,85.91,68,96,11.52,SL,1620402580
Srednekolymsk,67.45,153.6833,11.48,97,62,4.76,RU,1620402580
Lorengau,-2.0226,147.2712,80.65,83,89,7.83,PG,1620402581
Port Elizabeth,-33.918,25.5701,64.4,82,0,5.75,ZA,1620402581
Bluff,-46.6,168.3333,42.01,97,100,3.0,NZ,1620402581
Khovd,48.0056,91.6419,67.82,22,88,8.03,MN,1620402581
Acajutla,13.5928,-89.8275,80.01,100,0,4.0,SV,1620402581
Acarí,-15.4311,-74.6158,76.03,55,66,9.17,PE,1620402582
Guiratinga,-16.3494,-53.7583,82.4,41,66,3.02,BR,1620402582
Cherskiy,68.75,161.3,12.79,99,75,1.86,RU,1620402582
Lüderitz,-26.6481,15.1594,65.79,67,0,25.05,NA,1620402582
Cape Town,-33.9258,18.4232,64.0,82,90,12.66,ZA,1620402361
Weiden,49.6775,12.1567,45.0,81,75,8.05,DE,1620402583
Arraial do Cabo,-22.9661,-42.0278,80.6,78,40,13.8,BR,1620402583
Namatanai,-3.6667,152.4333,79.45,82,100,10.38,PG,1620402583
Morant Bay,17.8815,-76.4093,86.0,61,20,14.97,JM,1620402583
Emerald,-23.5333,148.1667,60.8,63,0,3.44,AU,1620402584
Avera,33.194,-82.5271,68.0,37,1,16.11,US,1620402584
Burnie,-41.0667,145.9167,53.01,98,96,4.41,AU,1620402584
Ponta do Sol,32.6667,-17.1,68.0,64,40,6.91,PT,1620402584
Bredasdorp,-34.5322,20.0403,60.8,94,100,12.66,ZA,1620402585
Katangli,51.7102,143.2326,30.24,97,79,6.49,RU,1620402585
Hermanus,-34.4187,19.2345,60.01,97,100,1.99,ZA,1620402585
Zhaoyang,42.682,126.0305,45.9,72,100,8.37,CN,1620402585
Port Alfred,-33.5906,26.891,67.73,84,75,2.46,ZA,1620402439
Flinders,-34.5833,150.8552,59.0,95,12,1.01,AU,1620402586
Katsuura,35.1333,140.3,62.01,82,100,3.0,JP,1620402586
Dingle,10.9995,122.6711,79.05,84,81,7.2,PH,1620402586
Kambove,-10.8764,26.5969,64.69,78,6,3.98,CD,1620402586
Abadan,38.0507,58.2056,77.0,44,40,4.61,TM,1620402587
Ahipara,-35.1667,173.1667,63.39,75,100,10.76,NZ,1620402587
Bethel,41.3712,-73.414,63.0,34,1,6.91,US,1620402587
Galesong,-5.3166,119.3661,75.2,100,20,2.3,ID,1620402587
Ruska Poliana,49.417,31.9201,57.92,70,100,10.49,UA,1620402588
Sungai Padi,6.0851,101.8766,82.4,89,20,2.39,TH,1620402588
Kapaa,22.0752,-159.319,70.0,88,75,8.05,US,1620402588
Souillac,-20.5167,57.5167,73.4,83,40,3.44,MU,1620402588
Faya,18.3851,42.4509,75.2,31,75,6.91,SA,1620402588
Zhigansk,66.7697,123.3711,32.02,88,100,5.86,RU,1620402589
Vila Velha,-20.3297,-40.2925,89.6,55,0,8.05,BR,1620402305
Bosaso,11.2842,49.1816,86.13,67,51,2.48,SO,1620402589
Arrondissement de Thiers,45.8333,3.5,57.2,58,75,8.05,FR,1620402589
Mount Isa,-20.7333,139.5,62.6,39,85,3.44,AU,1620402589
Tuatapere,-46.1333,167.6833,42.01,97,99,3.0,NZ,1620402590
Mehamn,71.0357,27.8492,33.8,80,75,20.71,NO,1620402590
Vidim,56.4088,103.1106,29.28,93,36,6.33,RU,1620402590
Ilulissat,69.2167,-51.1,33.8,69,75,5.75,GL,1620402590
Yangi Marg`ilon,40.4272,71.7189,73.4,53,12,6.91,UZ,1620402591
Tasiilaq,65.6145,-37.6368,32.0,74,75,11.5,GL,1620402591
Cenotillo,20.9667,-88.6167,91.98,37,6,6.11,MX,1620402591
Miyako,39.6367,141.9525,54.39,75,99,7.16,JP,1620402591
Amapá,1.0,-52.0,83.95,70,30,4.23,BR,1620402592
Ponta Delgada,37.7333,-25.6667,66.2,88,20,17.27,PT,1620402592
Clyde River,70.4692,-68.5914,28.4,93,75,14.97,CA,1620402592
Mhango,-3.2833,32.85,68.63,79,87,3.33,TZ,1620402592
Hasaki,35.7333,140.8333,59.0,100,75,5.75,JP,1620402593
Bo Rai,12.5728,102.5371,77.85,85,57,1.52,TH,1620402593
Banda Aceh,5.5577,95.3222,80.98,79,99,0.94,ID,1620402593
Nazarovo,56.0064,90.3914,50.18,64,86,7.16,RU,1620402593
Nueva Italia de Ruiz,19.0167,-102.1,71.6,56,75,4.0,MX,1620402594
Praia da Vitória,38.7333,-27.0667,66.2,88,75,29.01,PT,1620402594
Noumea,-22.2763,166.4572,77.0,88,40,1.14,NC,1620402594
Bubaque,11.2833,-15.8333,78.37,66,24,15.61,GW,1620402594
Rovaniemi,66.5,25.7167,30.2,93,90,6.91,FI,1620402594
Libreville,0.3925,9.4537,80.6,83,75,16.11,GA,1620402342
Hong Kong,22.2855,114.1577,80.01,82,55,1.99,HK,1620402455
Oktyabr'skoye,43.0645,44.7417,66.2,45,12,8.95,RU,1620402595
Broome,42.2506,-75.833,57.0,41,99,5.64,US,1620402595
Hambantota,6.1241,81.1185,78.8,100,75,2.3,LK,1620402595
Gander,48.9682,-54.5906,41.0,100,90,20.71,CA,1620402596
Mossamedes,-15.1961,12.1522,75.61,77,12,14.94,AO,1620402323
Barrow,71.2906,-156.7887,8.6,92,90,9.22,US,1620402596
Severomuysk,56.1481,113.4267,21.2,87,45,4.56,RU,1620402596
Nanchang,28.6833,115.8833,73.0,82,100,4.23,CN,1620402596
Butaritari,3.0707,172.7902,82.06,78,29,12.75,KI,1620402596
Chapais,49.7834,-74.8492,48.2,40,75,8.05,CA,1620402597
Sitka,57.0531,-135.33,46.4,87,75,3.53,US,1620402597
Nelson Bay,-32.7167,152.15,62.01,100,57,8.05,AU,1620402597
Atar,20.5169,-13.0499,99.36,7,0,11.03,MR,1620402597
Cockburn Town,21.4612,-71.1419,80.15,68,59,15.52,TC,1620402598
Fortuna,40.5982,-124.1573,53.01,81,75,17.27,US,1620402598
Ixtapa,20.7,-105.2,77.0,78,90,5.01,MX,1620402598
Guerrero Negro,27.9769,-114.0611,63.84,66,54,11.72,MX,1620402598
Shimanovsk,52.0,127.7,39.07,58,100,9.86,RU,1620402599
Orlik,52.5178,99.825,39.52,91,100,1.79,RU,1620402599
Alice Springs,-23.7,133.8833,62.6,27,100,4.61,AU,1620402599
Geraldton,-28.7667,114.6,62.6,77,40,11.5,AU,1620402599
Inhambane,-23.865,35.3833,73.4,60,20,5.75,MZ,1620402600
Batagay-Alyta,67.8006,130.4114,25.39,97,100,2.46,RU,1620402600
Sola,-13.8833,167.55,82.4,89,75,6.91,VU,1620402600
Toyokawa,34.8167,137.4,57.0,92,94,7.38,JP,1620402600
Hualmay,-11.0964,-77.6139,70.79,71,17,10.13,PE,1620402601
Râşnov,45.5833,25.45,66.99,43,97,3.0,RO,1620402601
Saint-Pierre,-21.3393,55.4781,73.4,68,40,9.22,RE,1620402601
Ozinki,51.1786,49.6769,60.03,49,82,5.41,RU,1620402601
Lensk,60.7253,114.9278,35.44,98,78,1.41,RU,1620402602
Kuril'sk,45.2333,147.8833,45.48,62,100,12.88,RU,1620402602
Ol'ga,43.7444,135.2892,44.35,95,99,9.46,RU,1620402602
Springville,40.1652,-111.6107,77.0,30,1,3.44,US,1620402442
Bereda,43.2686,-7.5406,71.01,46,100,15.01,ES,1620402603
Fort Nelson,58.8053,-122.7002,44.6,81,90,2.3,CA,1620402603
Steamboat Springs,40.485,-106.8317,61.0,30,1,4.21,US,1620402603
Parrita,9.5201,-84.3225,77.0,64,75,9.22,CR,1620402603
Freeport,40.6576,-73.5832,63.0,39,1,6.91,US,1620402464
São Filipe,14.8961,-24.4956,73.42,78,100,16.04,CV,1620402604
Harlingen,26.1906,-97.6961,78.8,65,40,8.05,US,1620402604
Saint Paul Harbor,57.79,-152.4072,39.2,70,90,6.91,US,1620402604
Los Llanos de Aridane,28.6585,-17.9182,73.4,49,75,6.91,ES,1620402604
Pāsighāt,28.0667,95.3333,71.73,82,42,2.93,IN,1620402605
College,64.8569,-147.8028,44.6,65,75,9.22,US,1620402417
Utete,-7.986,38.758,74.23,77,100,5.14,TZ,1620402605
Colares,38.7992,-9.4469,71.01,68,20,13.8,PT,1620402605
Lødingen,68.414,15.9951,42.8,31,40,8.05,NO,1620402605
Catuday,16.2923,119.8062,81.32,77,6,2.48,PH,1620402605
Kiryat Gat,31.61,34.7642,77.0,52,0,1.99,IL,1620402553
St. George's,12.0564,-61.7485,79.72,78,100,14.97,GD,1620402606
Aklavik,68.2191,-135.0107,23.0,80,100,9.22,CA,1620402606
Camacha,33.0833,-16.3333,68.0,60,40,4.61,PT,1620402606
Wanning,18.8003,110.3967,76.53,88,70,4.07,CN,1620402606
Monywa,22.1167,95.1333,88.74,41,38,9.78,MM,1620402607
San Patricio,28.017,-97.5169,80.6,65,40,10.36,US,1620402607
Upernavik,72.7868,-56.1549,29.12,78,99,7.34,GL,1620402607
Carutapera,-1.195,-46.02,85.33,69,52,6.31,BR,1620402607
Concarneau,47.875,-3.9225,53.6,82,75,10.36,FR,1620402608
Tuy Hoa,13.0833,109.3,78.35,88,100,3.38,VN,1620402608
Santa Isabel Rio Negro,-0.4139,-65.0192,76.55,92,100,2.26,BR,1620402608
Havøysund,70.9963,24.6622,33.8,80,75,20.71,NO,1620402608
Vostok,46.4856,135.8833,44.65,68,100,4.29,RU,1620402609
Belmonte,-15.8631,-38.8828,82.4,69,40,12.66,BR,1620402609
Aswān,24.0934,32.907,104.16,7,45,10.58,EG,1620402609
Yarmouth,41.7057,-70.2286,59.0,41,1,11.5,US,1620402609
Labuhan,-6.8844,112.2051,79.03,82,70,3.27,ID,1620402610
Mil'kovo,54.7167,158.6167,32.11,86,46,3.31,RU,1620402610
Saint-Ambroise,48.5501,-71.3324,55.0,43,40,8.05,CA,1620402610
Chennai,13.0878,80.2785,88.0,70,40,4.61,IN,1620402561
Chokwé,-24.5333,32.9833,69.17,66,28,4.12,MZ,1620402610
Comodoro Rivadavia,-45.8667,-67.5,55.4,62,0,11.5,AR,1620402610
Mayya,61.7333,130.2811,41.0,60,0,6.71,RU,1620402611
Araouane,18.9048,-3.5265,104.86,9,5,11.12,ML,1620402611
Ous,60.9058,61.5186,53.35,77,28,4.83,RU,1620402611
Dorogobuzh,54.915,33.2972,50.85,70,100,10.13,RU,1620402611
Olafsvik,64.8945,-23.7142,37.78,54,42,14.25,IS,1620402612
Fairbanks,64.8378,-147.7164,44.6,75,90,4.61,US,1620402612
Kendari,-3.945,122.4989,73.89,95,100,4.14,ID,1620402612
Lavrentiya,65.5833,-171.0,19.99,88,16,7.38,RU,1620402612
Severo-Kuril'sk,50.6789,156.125,37.6,89,45,8.39,RU,1620402613
Rakhiv,48.0526,24.2009,52.0,93,75,3.44,UA,1620402613
Derzhavīnsk,51.1,66.3167,60.57,35,73,7.92,KZ,1620402613
Moramanga,-18.9333,48.2,63.12,95,66,3.27,MG,1620402613
Phetchaburi,12.9667,99.5833,82.0,99,89,2.48,TH,1620402614
Champerico,14.3,-91.9167,80.6,83,40,6.91,GT,1620402614
Opuwo,-18.0607,13.84,80.44,37,14,5.26,NA,1620402614
Mogzon,51.7435,111.9606,32.59,86,80,3.06,RU,1620402614
Anadyr,64.75,177.4833,14.0,92,20,4.47,RU,1620402615
Makakilo City,21.3469,-158.0858,73.4,78,20,5.75,US,1620402615
Provincia di Imperia,43.9667,7.7833,68.0,77,20,12.66,IT,1620402615
Umluj,25.0213,37.2685,86.13,53,0,7.78,SA,1620402615
Poum,-20.2333,164.0167,78.17,79,100,15.66,NC,1620402615
Galveston,29.3669,-94.9669,81.0,50,1,11.5,US,1620402539
Apsheronsk,44.46,39.73,59.22,75,61,2.24,RU,1620402616
Turaif,31.6725,38.6637,86.0,21,0,9.22,SA,1620402616
Laas,46.6166,10.7002,71.6,43,75,8.05,IT,1620402616
Vestmannaeyjar,63.4427,-20.2734,39.2,75,75,17.27,IS,1620402616
Hirara,24.8,125.2833,77.16,91,55,9.13,JP,1620402617
Yulara,-25.2406,130.9889,62.6,88,90,9.22,AU,1620402617
Vawkavysk,53.1561,24.4513,42.8,87,90,8.95,BY,1620402617
Sørland,67.667,12.6934,42.8,56,40,12.66,NO,1620402617
Cadillac,44.2519,-85.4012,39.2,93,90,5.75,US,1620402618
Vardø,70.3705,31.1107,32.0,93,75,33.38,NO,1620402618
Humberto de Campos,-2.5983,-43.4611,82.06,77,100,6.13,BR,1620402618
Manoel Urbano,-8.8389,-69.2597,78.75,58,87,6.55,BR,1620402618
Stephenville,32.2207,-98.2023,75.2,53,1,10.36,US,1620402619
Gēdo,9.0167,37.45,55.44,87,100,1.97,ET,1620402619
Grezzana,45.5203,11.0177,75.2,33,40,17.27,IT,1620402619
Ancud,-41.8697,-73.8203,55.0,76,0,3.44,CL,1620402619
Laguna,38.421,-121.4238,61.0,71,1,9.22,US,1620402620
Baruun-Urt,46.6806,113.2792,35.13,83,34,15.03,MN,1620402620
Cēsis,57.3119,25.2746,45.0,89,99,1.01,LV,1620402620
Elmadağ,39.9208,33.2308,75.2,28,20,10.36,TR,1620402620
Alghero,40.5589,8.3181,68.0,73,40,8.05,IT,1620402620
Nikopol',47.5712,34.3964,62.08,57,57,6.67,UA,1620402621
Chui,-33.6971,-53.4616,60.33,63,98,8.68,UY,1620402621
Kieta,-6.2167,155.6333,79.54,82,100,4.34,PG,1620402621
Talnakh,69.4865,88.3972,35.13,99,100,3.27,RU,1620402621
Gmina Końskie,51.1917,20.4061,51.01,1,97,15.23,PL,1620402622
Coquimbo,-29.9533,-71.3436,64.4,59,75,5.75,CL,1620402622
Kaitangata,-46.2817,169.8464,46.17,88,100,2.06,NZ,1620402622
Quijingue,-10.7525,-39.2092,86.68,43,99,6.85,BR,1620402622
Bilma,18.6853,12.9164,107.38,4,5,10.2,NE,1620402623
Nemuro,43.3236,145.575,42.48,90,100,10.16,JP,1620402623
Tornio,65.8481,24.1466,33.8,80,90,11.5,FI,1620402623
Uga,5.9358,7.0793,81.18,73,98,5.44,NG,1620402623
Douentza,14.9951,-2.9517,104.52,11,13,5.61,ML,1620402624
Inírida,3.8653,-67.9239,76.6,91,100,3.83,CO,1620402624
Rāikot,30.65,75.6,79.63,44,91,6.62,IN,1620402624
Dargaville,-35.9333,173.8833,59.31,88,100,6.8,NZ,1620402624
Tual,-5.6667,132.75,83.93,75,28,17.27,ID,1620402624
San Rafael,-34.6177,-68.3301,55.56,65,100,10.76,AR,1620402625
Lusambo,-4.9667,23.45,73.99,94,100,1.01,CD,1620402625
Itarema,-2.9248,-39.9167,83.64,70,87,13.27,BR,1620402625
Jalu,29.0331,21.5482,110.25,4,1,10.83,LY,1620402625
Tiznit Province,29.5833,-9.5,81.79,34,0,8.61,MA,1620402626
Borogontsy,62.6683,131.1683,35.26,90,80,2.59,RU,1620402626
Nuuk,64.1835,-51.7216,32.0,86,75,11.5,GL,1620402626
Poso,-1.3959,120.7524,79.0,82,100,5.06,ID,1620402583
Tongren,27.7172,109.1853,65.34,95,100,1.41,CN,1620402627
Huarmey,-10.0681,-78.1522,71.04,73,30,9.35,PE,1620402627
Nyuksenitsa,60.4128,44.2397,47.44,68,100,7.87,RU,1620402627
Iyo,33.7514,132.7014,61.0,86,46,1.01,JP,1620402627
La Santisima Trinidad,-14.8333,-64.9,62.6,72,90,11.5,BO,1620402627
Batticaloa,7.7102,81.6924,82.56,75,90,7.94,LK,1620402628
Kenai,60.5544,-151.2583,36.0,93,1,5.91,US,1620402492
Narsaq,60.9167,-46.05,39.2,65,75,11.5,GL,1620402628
Okhotsk,59.3833,143.3,31.89,70,59,1.34,RU,1620402628
Calgary,51.0501,-114.0853,46.4,53,75,6.91,CA,1620402545
Beringovskiy,63.05,179.3167,27.1,95,100,6.33,RU,1620402628
Ceres,37.5949,-120.9577,57.99,62,1,11.5,US,1620402629
Mayskiy,47.6931,40.1025,66.2,55,20,15.66,RU,1620402629
Santa Flavia,38.085,13.5351,70.0,43,49,5.99,IT,1620402629
Santa Cruz,30.4202,-9.5982,77.0,53,0,11.5,MA,1620402629
Hervey Bay,-25.2986,152.8535,64.99,79,48,1.01,AU,1620402630
Lovington,32.944,-103.3485,75.99,40,90,5.01,US,1620402630
Sechura,-5.5569,-80.8222,76.59,60,16,10.13,PE,1620402630
Itoman,26.1247,127.6694,77.0,100,75,11.5,JP,1620402630
Winder,33.9926,-83.7202,63.0,44,75,14.97,US,1620402631
Aliaga,15.5167,120.8667,82.4,65,75,4.61,PH,1620402631
Qui Nhon,13.7667,109.2333,79.32,80,100,2.93,VN,1620402500
Saint-André-Avellin,45.7168,-75.066,57.0,58,90,5.75,CA,1620402631
Ilebo,-4.3167,20.5833,79.97,73,66,1.95,CD,1620402631
Palmer,42.1584,-72.3287,64.99,31,20,5.75,US,1620402632
Tura,25.5198,90.2201,70.03,91,59,5.68,IN,1620402632
Xam Nua,20.4197,104.0439,67.5,90,18,2.42,LA,1620402632
Taree,-31.9,152.4667,59.0,94,79,4.61,AU,1620402632
Richards Bay,-28.783,32.0377,68.76,79,22,11.14,ZA,1620402633
Constitución,-35.3333,-72.4167,59.9,84,100,10.98,CL,1620402633
Enshi,30.3,109.4833,64.08,86,100,0.92,CN,1620402633
Port Blair,11.6667,92.75,83.25,73,100,9.37,IN,1620402633
Rovenki,48.0833,39.3776,59.22,53,37,3.65,UA,1620402533
Gudāri,19.35,83.7833,82.15,70,27,4.14,IN,1620402634
Noyabrsk,63.1994,75.4507,32.23,95,100,22.3,RU,1620402634
Muisne,0.6,-80.0333,78.8,89,75,6.91,EC,1620402634
Esperance,-33.8667,121.9,55.4,100,75,5.75,AU,1620402634
Saint-Augustin,51.226,-58.6502,42.55,71,100,19.55,CA,1620402635
Ayan,56.45,138.1667,31.39,98,100,14.14,RU,1620402635
Asău,46.4333,26.4,68.0,56,75,12.66,RO,1620402635
Half Moon Bay,37.4636,-122.4286,59.0,82,20,10.36,US,1620402635
Preobrazheniye,42.9019,133.9064,46.49,89,87,24.07,RU,1620402636
Nizhniy Kuranakh,58.8353,125.4869,30.85,99,98,2.28,RU,1620402636
Pundaguitan,6.3711,126.1689,81.81,79,100,11.32,PH,1620402636
Kuruman,-27.4524,23.4325,70.0,44,58,9.82,ZA,1620402636
Barra dos Coqueiros,-10.9089,-37.0386,84.2,61,40,8.05,BR,1620402637
Faanui,-16.4833,-151.75,82.17,65,75,12.75,PF,1620402637
Nouadhibou,20.931,-17.0347,71.6,68,0,20.71,MR,1620402637
Yar-Sale,66.8333,70.8333,33.13,97,100,17.98,RU,1620402637
Bukachacha,52.9833,116.9167,35.47,80,36,4.68,RU,1620402638
Aquiraz,-3.9014,-38.3911,86.0,66,40,14.97,BR,1620402638
Takoradze,4.8845,-1.7554,84.83,68,93,13.67,GH,1620402638
Shingū,33.7333,135.9833,56.19,93,100,5.46,JP,1620402638
Ajdabiya,30.7554,20.2263,85.89,29,2,18.79,LY,1620402638
Pilar,-9.5972,-35.9567,75.2,94,75,3.44,BR,1620402621
Stromness,58.965,-3.296,48.2,66,40,10.36,GB,1620402639
Riyadh,24.6877,46.7219,100.4,7,20,10.36,SA,1620402358
Khatanga,71.9667,102.5,34.92,97,100,12.55,RU,1620402639
Oranjemund,-28.55,16.4333,60.66,89,1,13.8,NA,1620402639
Mackay,-21.15,149.2,59.0,88,1,4.61,AU,1620402639
Vao,-22.6667,167.4833,76.3,85,99,16.49,NC,1620402640
Manacapuru,-3.2997,-60.6206,86.0,74,40,8.05,BR,1620402411
Port Macquarie,-31.4333,152.9167,59.0,100,75,4.7,AU,1620402640
Berbera,10.4396,45.0143,87.04,68,100,6.08,SO,1620402640
Nome,64.5011,-165.4064,39.99,60,1,10.36,US,1620402640
Mahajanga,-15.7167,46.3167,80.6,74,20,5.75,MG,1620402641
Sambava,-14.2667,50.1667,78.98,77,15,16.46,MG,1620402641
Krasnoznamensk,55.5994,37.0386,59.0,33,0,11.18,RU,1620402641
Moree,-29.4667,149.85,59.0,94,75,4.61,AU,1620402641
Yanzhou,35.5528,116.8286,60.31,35,0,10.51,CN,1620402642
Petropavlovsk-Kamchatskiy,53.0452,158.6483,33.8,100,91,2.24,RU,1620402642
Prince Rupert,54.3161,-130.3201,44.6,87,90,14.97,CA,1620402642
Tiksi,71.6872,128.8694,24.3,97,100,5.53,RU,1620402642
Nova Olímpia,-14.7972,-57.2881,74.55,52,54,4.61,BR,1620402642
Zhangjiakou,40.81,114.8794,64.06,23,96,15.95,CN,1620402643
Patrocínio,-18.9439,-46.9925,82.99,34,0,5.75,BR,1620402643
Goma,-1.6792,29.2228,65.91,88,98,0.98,CD,1620402643
Saldanha,-33.0117,17.9442,66.2,68,11,13.8,ZA,1620402622
Cascavel,-24.9558,-53.4553,69.01,72,0,4.61,BR,1620402643
Buchanan,5.8808,-10.0467,89.6,66,40,11.5,LR,1620402533
Bintulu,3.1667,113.0333,77.0,100,20,3.44,MY,1620402644
Ochakiv,46.6128,31.5498,57.2,82,0,15.66,UA,1620402644
Kalmunai,7.4167,81.8167,81.66,78,100,5.35,LK,1620402644
Port Lincoln,-34.7333,135.8667,60.37,91,42,5.75,AU,1620402644
Byron Bay,-28.65,153.6167,63.0,94,40,3.44,AU,1620402645
Karratha,-20.7377,116.8463,79.12,60,6,9.62,AU,1620402645
Lethem,3.3803,-59.7968,89.28,54,80,7.18,GY,1620402645
Carnot,4.9409,15.8665,72.52,88,100,2.89,CF,1620402646
Pacific Grove,36.6177,-121.9166,55.4,71,75,9.22,US,1620402356
Agadez,19.75,10.25,104.97,4,2,9.66,NE,1620402603
Salalah,17.0151,54.0924,86.0,74,75,9.22,OM,1620402606
São José da Coroa Grande,-8.8978,-35.1478,82.45,70,21,8.32,BR,1620402646
Sinnamary,5.3833,-52.95,79.74,79,100,6.15,GF,1620402646
San Juan,-31.5375,-68.5364,62.19,46,75,4.47,AR,1620402640
Aripuanã,-9.1667,-60.6333,82.96,50,8,4.99,BR,1620402646
Saiha,22.4833,92.9667,67.55,96,56,2.86,IN,1620402647
Pochutla,15.7432,-96.4661,88.0,65,90,4.14,MX,1620402647
Yakeshi,49.2833,120.7333,42.48,66,100,9.35,CN,1620402647
Mercedes,-34.6515,-59.4307,66.0,42,3,7.0,AR,1620402647
Honiara,-9.4333,159.95,78.39,89,100,7.02,SB,1620402648
Lagoa,39.05,-27.9833,62.35,93,100,32.77,PT,1620402648
Macapá,0.0389,-51.0664,89.6,62,75,5.75,BR,1620402648
Muskogee,35.5834,-95.3336,62.01,72,90,6.91,US,1620402648
Torbay,47.6666,-52.7314,43.0,93,90,9.22,CA,1620402649
Anuradhapura,8.3565,80.4173,77.45,86,86,4.65,LK,1620402649
Lianyuan,27.6883,111.6642,69.13,96,100,1.68,CN,1620402649
Touros,-5.1989,-35.4608,86.0,66,40,10.36,BR,1620402649
Iwakuni,34.15,132.1833,62.6,82,75,8.05,JP,1620402650
Nastola,60.95,25.9333,48.99,66,75,9.22,FI,1620402650
Port-Cartier,50.0334,-66.8654,39.99,100,90,6.91,CA,1620402650
Mitsamiouli,-11.3847,43.2844,80.91,73,57,19.95,KM,1620402650
Suez,29.9737,32.5263,86.07,28,7,19.35,EG,1620402650
Mindelo,16.8901,-24.9804,77.0,57,20,24.16,CV,1620402651
Oriximiná,-1.7656,-55.8661,86.31,64,41,5.61,BR,1620402651
Along,28.1667,94.7667,66.56,94,32,2.37,IN,1620402651
Bragança,-1.0536,-46.7656,84.78,78,40,4.34,BR,1620402651
El Bagre,7.5927,-74.8086,85.15,64,88,2.55,CO,1620402652
Portland,45.5234,-122.6762,51.01,71,75,11.5,US,1620402554
Kahului,20.8947,-156.47,71.6,78,1,8.05,US,1620402394
Dryden,49.7833,-92.7503,35.6,64,90,8.05,CA,1620402640
Erbil,36.1926,44.0106,78.8,38,40,23.02,IQ,1620402652
Kruisfontein,-34.0033,24.7314,62.01,83,1,1.01,ZA,1620402652
Zharkent,44.1628,80.0,68.27,63,93,7.87,KZ,1620402652
Pio XII,-3.8325,-45.1525,87.49,62,85,2.62,BR,1620402653
Nizhniy Tsasuchey,50.5167,115.1333,41.65,58,32,12.17,RU,1620402653
Vanavara,60.34,102.2797,30.81,94,28,3.58,RU,1620402653
Linxia Chengguanzhen,35.6003,103.2064,55.8,23,0,4.03,CN,1620402653
Pozo Colorado,-23.4923,-58.7972,69.22,34,4,5.48,PY,1620402654
Alyangula,-13.8483,136.4192,69.8,94,13,7.72,AU,1620402654
Lazarev,52.225,141.5131,25.59,91,43,7.02,RU,1620402654
Panzhihua,26.5851,101.7128,67.28,65,55,4.61,CN,1620402654
Düzce,40.8389,31.1639,70.5,64,100,2.04,TR,1620402655
Naze,28.3667,129.4833,68.68,95,95,4.16,JP,1620402655
Matara,5.9485,80.5353,78.82,88,99,6.64,LK,1620402655
Sioux Lookout,50.1001,-91.917,35.6,69,75,13.8,CA,1620402655
Kigoma,-4.8769,29.6267,75.22,73,100,1.19,TZ,1620402656
Lasem,-6.6922,111.4527,79.3,79,98,2.44,ID,1620402656
Nabire,-3.3667,135.4833,75.42,95,61,3.78,ID,1620402656
Shahrud,36.4182,54.9763,69.73,50,100,5.26,IR,1620402656
Ji’an,27.1172,114.9793,70.99,97,100,3.33,CN,1620402657
Flin Flon,54.7682,-101.865,39.2,52,1,9.22,CA,1620402657
Kamennogorsk,60.9545,29.1339,46.99,60,94,4.0,RU,1620402657
Yenagoa,4.9247,6.2642,79.77,84,100,5.79,NG,1620402657
Cayenne,4.9333,-52.3333,87.8,66,75,10.36,GF,1620402658
Paso de Carrasco,-34.8603,-56.0522,66.99,63,75,8.05,UY,1620402658
Subtanjalla,-14.0189,-75.7581,69.8,78,75,4.61,PE,1620402658
Snezhnogorsk,69.1933,33.2531,33.8,86,75,13.42,RU,1620402658
Alekseyevka,50.6309,38.6903,55.85,62,97,3.49,RU,1620402658
Lixouri,38.2019,20.4314,73.4,60,40,4.61,GR,1620402659
Santa Cruz de Barahona,18.2085,-71.1008,86.0,66,20,16.11,DO,1620402659
Kununurra,-15.7667,128.7333,60.8,100,77,3.67,AU,1620402659
Mīzan Teferī,6.9833,35.5833,63.3,97,100,0.36,ET,1620402659
Codrington,-38.2667,141.9667,54.09,97,54,8.01,AU,1620402660
Sokoni,-6.4333,39.55,80.6,74,75,12.66,TZ,1620402660
Amarante do Maranhão,-5.5667,-46.7422,83.86,68,29,4.38,BR,1620402660
Skjervøy,70.0311,20.9714,35.6,69,75,6.91,NO,1620402452
Hay River,60.8156,-115.7999,48.2,40,100,11.5,CA,1620402660
Ilave,-16.0833,-69.6667,52.83,54,91,6.22,PE,1620402661
Savonlinna,61.8699,28.88,41.0,65,75,4.61,FI,1620402661
Preslav,43.1667,26.8167,70.3,72,84,6.31,BG,1620402661
Kathu,7.9178,98.3332,88.0,100,40,10.22,TH,1620402661
Gualaquiza,-3.4,-78.55,64.72,97,100,0.63,EC,1620402662
Hoquiam,46.9809,-123.8893,51.01,87,90,4.61,US,1620402662
Adiaké,5.2863,-3.304,84.2,79,20,10.36,CI,1620402491
Loandjili,-4.7561,11.8578,84.2,79,20,10.36,CG,1620402662
Neiafu,-18.65,-173.9833,75.2,94,90,6.91,TO,1620402662
Rocha,-34.4833,-54.3333,59.92,62,96,9.62,UY,1620402663
Sunbury,-37.5833,144.7333,55.4,62,0,11.5,AU,1620402663
Chabahar,25.2919,60.643,84.0,74,92,4.25,IR,1620402663
Trairi,-3.2778,-39.2689,79.12,83,99,6.8,BR,1620402492
Karabash,55.4808,60.2157,53.55,50,13,4.9,RU,1620402663
Koslan,63.4564,48.8989,47.79,83,100,2.91,RU,1620402664
Palatka,29.6486,-81.6376,75.99,44,0,8.97,US,1620402607
Esmeralda,21.8525,-78.1169,84.2,61,40,5.75,CU,1620402664
Arlit,18.7369,7.3853,108.43,3,6,3.47,NE,1620402664
Tilichiki,60.4667,166.1,26.83,95,100,5.08,RU,1620402664
Erenhot,43.6475,111.9767,45.59,32,84,16.2,CN,1620402665
Shakawe,-18.3667,21.85,77.05,27,10,5.84,BW,1620402665
Salamanca,40.8333,-6.0,79.0,37,12,8.01,ES,1620402665
Linda,39.1277,-121.5508,62.01,67,1,11.5,US,1620402665
Teya,60.3778,92.6267,35.8,99,100,1.01,RU,1620402666
Kandrian,-6.2167,149.55,78.31,90,100,8.19,PG,1620402666
Cap Malheureux,-19.9842,57.6142,73.0,80,25,1.99,MU,1620402666
Guarapari,-20.6667,-40.4975,89.6,55,0,8.05,BR,1620402666
Myitkyina,25.3833,97.4,74.23,69,17,2.93,MM,1620402493
Totton,50.9188,-1.4904,55.99,41,20,13.8,GB,1620402667
Luena,-11.7833,19.9167,73.38,58,77,4.61,AO,1620402667
Quatre Cocos,-20.2078,57.7625,73.4,83,40,3.44,MU,1620402667
Viedma,-40.8135,-62.9967,63.43,24,42,14.79,AR,1620402625
Agirish,61.9247,63.0231,45.57,75,62,3.65,RU,1620402667
Cumana,10.4635,-64.1775,82.4,78,74,14.97,VE,1620402668
Robinsonville,31.4677,-97.1147,79.0,50,1,8.05,US,1620402668
Bulawayo,-20.15,28.5833,64.26,40,5,7.76,ZW,1620402668
Ilorin,8.5,4.55,91.92,41,50,7.7,NG,1620402668
Lincoln,40.8,-96.667,63.0,44,90,6.91,US,1620402669
Bangaon,23.0667,88.8167,80.6,74,20,4.61,IN,1620402669
Waitara,-38.925,174.25,54.0,85,100,8.01,NZ,1620402669
Rochegda,62.8,43.25,47.68,75,100,5.77,RU,1620402669
Kampot,10.6167,104.1833,78.8,94,20,1.14,KH,1620402669
Grand-Santi,4.25,-54.3833,87.89,61,84,3.36,GF,1620402670
Chenôve,47.2932,5.0046,59.0,38,0,3.44,FR,1620402670
Alofi,-19.0595,-169.9187,75.2,94,58,14.97,NU,1620402670
Spearfish,44.4908,-103.8594,60.8,41,1,19.57,US,1620402671
Senanga,-16.1167,23.2667,75.61,30,67,4.76,ZM,1620402671
Lakes Entrance,-37.8811,147.981,55.0,98,82,6.31,AU,1620402671
Camopi,3.1655,-52.3158,81.46,81,59,3.18,GF,1620402671
Brigantine,39.4101,-74.3646,60.8,39,1,8.05,US,1620402435
Turukhansk,65.8167,87.9833,33.91,87,100,5.06,RU,1620402672
Tabou,4.423,-7.3528,83.14,73,100,7.7,CI,1620402672
Leeuwarden,53.2014,5.8086,53.01,66,40,14.97,NL,1620402672
Caravelas,-17.7125,-39.2481,84.34,59,66,8.61,BR,1620402672
Shellbrook,53.2168,-106.4011,46.4,36,75,14.97,CA,1620402673
Loreto,22.2667,-101.9667,69.08,43,46,9.69,MX,1620402673
Te Anau,-45.4167,167.7167,46.65,85,100,1.41,NZ,1620402673
Chornukhy,50.2673,32.942,56.44,62,99,11.68,UA,1620402673
Perth,-31.9333,115.8333,57.0,93,75,5.82,AU,1620402386
Dahuk,36.8695,42.994,72.14,45,40,3.74,IQ,1620402674
L'govskiy,51.6307,35.2775,54.75,71,100,7.16,RU,1620402674
Negombo,7.2083,79.8358,78.8,89,40,2.3,LK,1620402674
Luga,58.7372,29.8453,46.71,76,81,5.12,RU,1620402674
Manokwari,-0.8667,134.0833,79.07,83,88,4.59,ID,1620402674
Auki,-8.7676,160.7034,78.94,88,100,3.6,SB,1620402675
Boguchany,58.3814,97.4531,42.76,73,100,9.13,RU,1620402675
Mweka,-4.85,21.5667,73.33,93,81,3.04,CD,1620402675
Pascagoula,30.3658,-88.5561,78.01,50,1,5.75,US,1620402675
Mackenzie,55.2999,-123.1698,39.2,100,90,9.22,CA,1620402676
Yuci,37.6803,112.7319,55.4,26,0,4.47,CN,1620402676
Westport,41.1415,-73.3579,63.0,44,1,12.66,US,1620402676
