City,Lat,Lng,Max Temp,Humidity,Cloudiness,Wind Speed,Country,Date
Mogadishu,2.0371,45.3438,78.8,65,90,9.22,SO,1620282929
Borogontsy,62.6683,131.1683,45.07,58,100,6.42,RU,1620282929
Avarua,-21.2078,-159.775,77.0,78,90,5.75,CK,1620282929
Cape Town,-33.9258,18.4232,59.0,88,40,23.02,ZA,1620282929
San Quintín,30.4833,-115.95,60.69,87,0,3.58,MX,1620282930
Busselton,-33.65,115.3333,66.0,86,23,1.99,AU,1620282930
Ambon City,-3.6954,128.1814,82.4,83,40,4.61,ID,1620282930
Puerto Ayora,-0.7393,-90.3518,75.0,94,0,5.99,EC,1620282930
Pisco,-13.7,-76.2167,64.4,88,75,3.44,PE,1620282931
Hilo,19.7297,-155.09,75.2,73,90,4.68,US,1620282931
Rikitea,-23.1203,-134.9692,75.92,81,98,15.28,PF,1620282779
Port Hedland,-20.3167,118.5667,87.8,62,100,10.36,AU,1620282931
Saint-Philippe,-21.3585,55.7679,75.2,94,90,8.05,RE,1620282931
Vaini,-21.2,-175.2,73.4,100,75,11.5,TO,1620282932
Akdepe,42.0551,59.3788,78.8,38,0,6.91,TM,1620282932
Tocopilla,-22.092,-70.1979,66.31,67,84,3.4,CL,1620282932
Villarrica,-25.75,-56.4333,54.54,98,100,9.01,PY,1620282932
Bundaberg,-24.85,152.35,75.0,46,100,10.36,AU,1620282723
Sinnamary,5.3833,-52.95,75.69,89,98,3.74,GF,1620282933
Ponta do Sol,32.6667,-17.1,57.99,61,16,3.0,PT,1620282933
Wewak,-3.5534,143.6268,84.85,72,100,7.87,PG,1620282933
Dolinsk,47.35,142.8,57.2,51,40,15.66,RU,1620282933
Hurghada,27.2574,33.8129,90.41,30,0,13.91,EG,1620282934
Vao,-22.6667,167.4833,74.64,76,10,3.33,NC,1620282934
Port Lincoln,-34.7333,135.8667,72.01,41,35,9.6,AU,1620282934
Erdenet,49.0333,104.0833,47.23,33,32,13.85,MN,1620282934
Jaqué,7.5175,-78.1703,77.29,86,87,3.29,PA,1620282935
Hasaki,35.7333,140.8333,78.01,49,75,12.66,JP,1620282935
Gold Coast,-28.0,153.4333,71.6,64,0,5.75,AU,1620282935
Tilichiki,60.4667,166.1,26.11,86,44,8.3,RU,1620282935
Samarai,-10.6167,150.6667,80.94,68,0,9.44,PG,1620282935
Zhalantun,48.0,122.7167,63.0,23,100,3.98,CN,1620282936
Punta Arenas,-53.15,-70.9167,41.0,87,0,10.36,CL,1620282801
São Filipe,14.8961,-24.4956,71.64,77,21,5.88,CV,1620282936
El Real de Santa Maria,8.109,-77.7325,73.18,98,100,0.98,PA,1620282936
Broken Hill,-31.95,141.4333,66.2,32,100,12.66,AU,1620282936
College,64.8569,-147.8028,51.8,54,40,4.61,US,1620282937
Sabang,5.8933,95.3214,83.7,67,100,5.75,ID,1620282937
Kumul,42.8,93.45,83.23,5,100,2.68,CN,1620282937
Lorengau,-2.0226,147.2712,83.52,76,88,4.25,PG,1620282937
Hobart,-42.8794,147.3294,64.0,63,20,17.27,AU,1620282778
Ushuaia,-54.8,-68.3,35.6,87,20,16.11,AR,1620282796
Northam,51.0333,-4.2167,42.01,92,100,4.0,GB,1620282938
Bathsheba,13.2167,-59.5167,75.2,73,75,18.41,BB,1620282938
San Patricio,28.017,-97.5169,69.8,94,1,4.45,US,1620282938
Kuching,1.55,110.3333,89.6,66,40,4.61,MY,1620282938
Taoudenni,22.6783,-3.9836,80.17,20,0,9.48,ML,1620282939
Chokwé,-24.5333,32.9833,72.1,60,86,2.75,MZ,1620282939
Jamestown,42.097,-79.2353,39.2,87,75,8.05,US,1620282939
Erenhot,43.6475,111.9767,45.81,30,97,24.79,CN,1620282786
Hermanus,-34.4187,19.2345,59.0,92,100,20.74,ZA,1620282939
Buala,-8.145,159.5921,82.94,77,64,6.42,SB,1620282940
Yellowknife,62.456,-114.3525,37.4,52,40,8.05,CA,1620282940
Sarangani,5.4033,125.4636,83.61,76,100,22.84,PH,1620282940
Kavieng,-2.5744,150.7967,84.16,72,86,6.51,PG,1620282940
Saldanha,-33.0117,17.9442,55.4,83,20,1.14,ZA,1620282941
Innisfail,-17.5333,146.0333,72.63,63,53,5.77,AU,1620282941
Bluff,-46.6,168.3333,52.0,95,50,1.99,NZ,1620282941
Klaksvík,62.2266,-6.589,37.4,75,100,24.16,FO,1620282941
Esperance,-33.8667,121.9,66.2,82,40,2.3,AU,1620282942
Tiksi,71.6872,128.8694,28.53,87,100,14.74,RU,1620282942
Atuona,-9.8,-139.0333,80.58,78,37,22.88,PF,1620282942
Santa Isabel Rio Negro,-0.4139,-65.0192,70.99,98,93,2.62,BR,1620282942
Nome,64.5011,-165.4064,37.4,56,1,3.96,US,1620282943
Butaritari,3.0707,172.7902,83.39,78,100,20.38,KI,1620282943
Provideniya,64.3833,-173.3,32.0,64,0,11.18,RU,1620282943
Champerico,14.3,-91.9167,66.99,96,100,2.42,GT,1620282943
Kiryat Gat,31.61,34.7642,80.01,29,49,5.95,IL,1620282944
Wenzhou,27.9994,120.6668,76.44,39,100,5.35,CN,1620282944
Berlevåg,70.8578,29.0864,35.6,69,75,3.44,NO,1620282944
Talaya,61.3833,152.75,34.74,81,100,1.28,RU,1620282944
Vila Franca do Campo,37.7167,-25.4333,62.6,94,40,3.44,PT,1620282945
Qaanaaq,77.484,-69.3632,25.92,83,100,1.03,GL,1620282945
Soure,-0.7167,-48.5233,76.15,84,82,3.44,BR,1620282945
Leningradskiy,69.3833,178.4167,23.76,88,39,7.02,RU,1620282945
Hong Kong,22.2855,114.1577,86.0,72,94,3.0,HK,1620282669
Mehamn,71.0357,27.8492,33.8,80,75,4.88,NO,1620282946
Albany,42.6001,-73.9662,48.99,77,92,5.99,US,1620282946
Port Hardy,50.6996,-127.4199,53.6,62,40,5.75,CA,1620282946
Rocha,-34.4833,-54.3333,51.15,64,100,7.76,UY,1620282946
Rovaniemi,66.5,25.7167,32.0,59,20,8.05,FI,1620282946
Castlemaine,-37.0667,144.2167,61.57,66,100,3.89,AU,1620282947
Ajdabiya,30.7554,20.2263,85.98,16,100,16.69,LY,1620282947
Bonfim,3.0833,-59.95,76.48,82,100,2.77,BR,1620282947
Yugorsk,61.3133,63.3319,45.82,67,96,14.83,RU,1620282947
Kapaa,22.0752,-159.319,75.2,73,40,14.97,US,1620282948
New Norfolk,-42.7826,147.0587,60.01,67,0,1.01,AU,1620282948
Megion,61.0296,76.1136,62.6,42,0,13.42,RU,1620282948
Mataura,-46.1927,168.8643,52.0,95,41,1.99,NZ,1620282948
Lebu,-37.6167,-73.65,52.9,76,2,5.06,CL,1620282949
Pemba,-12.974,40.5178,75.2,69,20,12.66,MZ,1620282949
George Town,5.4112,100.3354,87.8,74,20,5.75,MY,1620282949
Narsaq,60.9167,-46.05,35.6,48,20,3.44,GL,1620282949
Severo-Kuril'sk,50.6789,156.125,34.41,95,100,11.43,RU,1620282950
Baykit,61.67,96.37,42.71,48,96,3.29,RU,1620282950
Port Alfred,-33.5906,26.891,70.7,60,99,5.84,ZA,1620282950
Mahébourg,-20.4081,57.7,82.4,78,75,1.14,MU,1620282950
Margate,51.3813,1.3862,43.0,84,100,1.01,GB,1620282951
Faanui,-16.4833,-151.75,82.33,75,12,13.27,PF,1620282951
Iqaluit,63.7506,-68.5145,30.2,93,90,8.05,CA,1620282951
Abramovka,51.1886,41.0202,58.55,49,100,13.89,RU,1620282951
Saint-Augustin,51.226,-58.6502,39.33,86,100,12.57,CA,1620282951
East London,-33.0153,27.9116,64.4,94,20,3.44,ZA,1620282952
Boa Vista,2.8197,-60.6733,75.2,88,0,3.44,BR,1620282952
Springbok,-29.6643,17.8865,50.05,81,12,2.51,ZA,1620282952
Rudnogorsk,57.2639,103.7519,36.19,99,100,2.89,RU,1620282952
Khatanga,71.9667,102.5,35.37,88,80,9.13,RU,1620282953
Chokurdakh,70.6333,147.9167,26.76,92,14,4.97,RU,1620282953
Coquimbo,-29.9533,-71.3436,55.4,76,0,5.75,CL,1620282953
Bumba,2.1833,22.4667,75.06,86,100,1.32,CD,1620282953
Mahon,39.8885,4.2658,59.0,94,20,7.47,ES,1620282954
Chapleau,47.8405,-83.4034,29.14,96,10,4.97,CA,1620282954
Paamiut,61.994,-49.6678,36.63,62,82,4.99,GL,1620282954
Jimeta,9.2833,12.4667,86.18,55,100,11.52,NG,1620282954
Kavaratti,10.5669,72.642,79.38,82,100,7.0,IN,1620282954
Airai,-8.9266,125.4092,65.37,83,98,3.06,TL,1620282955
Goshogawara,40.8044,140.4414,68.0,28,20,23.02,JP,1620282955
Felanitx,39.4696,3.1483,59.0,88,40,1.14,ES,1620282854
Souillac,-20.5167,57.5167,82.4,78,75,1.14,MU,1620282955
Chippewa Falls,44.9369,-91.3929,45.0,76,90,4.61,US,1620282956
Verkhnevilyuysk,63.4453,120.3167,47.25,61,90,8.43,RU,1620282956
Adré,13.4667,22.2,90.63,24,4,11.14,TD,1620282956
Lata,40.1629,-8.3327,57.0,96,72,2.71,PT,1620282956
Hobyo,5.3505,48.5268,87.04,65,100,7.72,SO,1620282956
Sitrah,26.1547,50.6206,93.2,24,0,6.91,BH,1620282957
Harper,4.375,-7.7169,77.43,89,100,12.03,LR,1620282957
Barrow,71.2906,-156.7887,15.8,79,90,6.91,US,1620282957
Chiredzi,-21.05,31.6667,72.21,42,1,4.23,ZW,1620282957
Aklavik,68.2191,-135.0107,23.0,80,100,10.36,CA,1620282958
Sechura,-5.5569,-80.8222,69.35,79,99,11.86,PE,1620282958
Kushtagi,15.7667,76.2,95.58,29,89,11.1,IN,1620282958
Fort-Shevchenko,44.5086,50.263,62.91,37,100,10.96,KZ,1620282958
Carnarvon,-24.8667,113.6333,77.0,57,40,6.91,AU,1620282959
Kruisfontein,-34.0033,24.7314,68.0,79,99,3.0,ZA,1620282959
Krasnyy Chikoy,50.3643,108.7512,43.48,50,100,12.35,RU,1620282959
Olafsvik,64.8945,-23.7142,33.91,65,28,12.93,IS,1620282959
Shimanovsk,52.0,127.7,50.43,58,100,7.11,RU,1620282733
Guanare,9.0418,-69.7421,77.0,100,99,1.14,VE,1620282960
Tikrit,34.6071,43.6782,92.97,14,6,5.91,IQ,1620282960
Mayo,38.8876,-76.5119,55.0,58,1,8.01,US,1620282960
Arraial do Cabo,-22.9661,-42.0278,70.56,85,6,5.97,BR,1620282960
Saskylakh,71.9167,114.0833,32.05,93,100,9.33,RU,1620282961
Tulun,54.5611,100.5792,41.59,95,100,7.81,RU,1620282961
Constitución,-35.3333,-72.4167,55.45,69,0,4.5,CL,1620282956
Bambous Virieux,-20.3428,57.7575,82.99,78,75,1.14,MU,1620282961
Burlington,39.8835,-74.6413,53.6,66,1,8.05,US,1620282876
Viedma,-40.8135,-62.9967,48.13,77,96,7.27,AR,1620282961
Ribeira Grande,38.5167,-28.7,62.6,94,75,18.41,PT,1620282962
Naze,28.3667,129.4833,68.0,83,75,6.91,JP,1620282962
Lagoa,39.05,-27.9833,61.81,89,31,17.47,PT,1620282962
Salalah,17.0151,54.0924,87.8,70,40,10.36,OM,1620282962
Fushun,41.8558,123.9233,75.2,23,0,20.13,CN,1620282963
Saint Paul Harbor,57.79,-152.4072,37.44,80,11,5.3,US,1620282963
Wiesmoor,53.4167,7.7333,44.01,75,40,10.36,DE,1620282963
Guerrero Negro,27.9769,-114.0611,61.39,87,0,6.6,MX,1620282963
Lábrea,-7.2586,-64.7981,71.78,98,62,1.63,BR,1620282964
Ulaanbaatar,47.9077,106.8832,39.2,33,20,11.18,MN,1620282673
Pamyat' Parizhskoy Kommuny,56.1048,44.4952,61.0,51,0,8.95,RU,1620282964
Saint George,37.1041,-113.5841,78.8,10,1,19.57,US,1620282964
Karratha,-20.7377,116.8463,83.05,60,99,9.71,AU,1620282964
Prince Rupert,54.3161,-130.3201,53.6,58,90,9.22,CA,1620282964
Sembakung,3.8167,117.25,82.4,94,75,2.06,ID,1620282965
Tura,25.5198,90.2201,87.66,43,84,4.74,IN,1620282965
Cap Malheureux,-19.9842,57.6142,82.99,79,70,3.0,MU,1620282965
Dum Duma,27.5667,95.5667,75.2,88,75,4.61,IN,1620282965
Bredasdorp,-34.5322,20.0403,59.0,88,90,2.3,ZA,1620282966
Kaitangata,-46.2817,169.8464,51.64,89,83,2.15,NZ,1620282966
Esna,25.2934,32.554,89.6,19,0,4.61,EG,1620282966
Banda Aceh,5.5577,95.3222,86.43,62,100,1.97,ID,1620282966
Gazojak,41.1875,61.4036,77.72,27,97,2.26,TM,1620282967
Kahului,20.8947,-156.47,73.4,68,40,13.8,US,1620282967
Egvekinot,66.3167,-179.1667,19.81,75,1,9.15,RU,1620282967
Castro,-24.7911,-50.0119,58.44,64,0,3.8,BR,1620282967
Kencong,-8.2833,113.3667,85.1,71,100,9.93,ID,1620282968
Hithadhoo,-0.6,73.0833,84.36,64,91,4.07,MV,1620282968
Middelburg,-25.7751,29.4648,62.58,31,0,4.32,ZA,1620282968
Tautira,-17.7333,-149.15,82.4,74,20,2.3,PF,1620282968
Enid,36.3956,-97.8784,51.8,87,75,4.61,US,1620282968
Tezu,27.9167,96.1667,84.18,52,79,1.36,IN,1620282969
Adrar,20.5022,-10.0711,70.05,23,2,12.15,MR,1620282969
Tasiilaq,65.6145,-37.6368,28.4,80,90,4.61,GL,1620282969
Marsh Harbour,26.5412,-77.0636,77.27,82,5,10.31,BS,1620282969
Lárdos,36.0942,28.0157,71.6,56,20,12.66,GR,1620282970
Vaitape,-16.5167,-151.75,82.29,75,12,13.2,PF,1620282970
Yumen,40.2833,97.2,73.47,6,100,6.71,CN,1620282970
Tete,-16.1564,33.5867,68.0,68,20,4.61,MZ,1620282970
Khovd,48.0056,91.6419,61.93,22,100,6.33,MN,1620282971
Kailua,21.4022,-157.7394,75.2,73,75,9.22,US,1620282938
Yulara,-25.2406,130.9889,82.4,21,100,5.75,AU,1620282971
Morón,-34.6534,-58.6198,48.99,83,0,5.12,AR,1620282781
Ahipara,-35.1667,173.1667,58.26,84,92,4.81,NZ,1620282971
Qaqortoq,60.7167,-46.0333,35.6,48,20,3.44,GL,1620282971
Anito,12.4497,125.2886,81.55,89,85,10.58,PH,1620282972
Casa Nova,-9.4167,-41.1333,75.2,83,40,8.05,BR,1620282972
Dzilam González,21.2833,-88.9333,76.42,84,85,5.7,MX,1620282972
Dosso,13.049,3.1937,87.4,37,34,14.36,NE,1620282972
Luga,58.7372,29.8453,42.22,99,100,4.03,RU,1620282973
Sri Aman,1.2376,111.4621,87.8,70,40,1.14,MY,1620282973
Tomatlán,19.9333,-105.25,68.04,85,1,2.37,MX,1620282973
Dingli,35.8614,14.3822,62.6,94,100,6.91,MT,1620282973
Ormara,25.2088,64.6357,85.21,69,86,19.24,PK,1620282974
Bereda,43.2686,-7.5406,54.0,87,100,10.0,ES,1620282974
Torit,4.4133,32.5678,81.07,65,85,0.58,SS,1620282974
Mergen,49.1833,125.2167,53.04,47,96,10.07,CN,1620282974
Ternate,0.8,127.4,83.93,73,94,4.34,ID,1620282974
Touros,-5.1989,-35.4608,73.4,94,40,3.44,BR,1620282975
Upernavik,72.7868,-56.1549,17.1,76,26,7.76,GL,1620282975
Muskegon,43.3,-86.1334,43.0,75,90,3.98,US,1620282975
Half Moon Bay,37.4636,-122.4286,53.6,87,90,3.44,US,1620282975
Kajaani,64.2273,27.7285,35.6,60,0,14.97,FI,1620282976
Laguna de Perlas,12.3429,-83.6712,77.61,84,44,6.76,NI,1620282976
Cabra,37.4725,-4.4421,60.01,67,0,2.57,ES,1620282976
Erzin,36.9559,36.2,70.0,88,100,3.24,TR,1620282977
Inongo,-1.95,18.2667,73.06,90,100,6.58,CD,1620282682
Vangaindrano,-23.35,47.6,74.14,61,0,1.92,MG,1620282964
Sayyan,15.1718,44.3244,66.88,43,98,8.41,YE,1620282680
Inverness,57.4791,-4.224,39.99,87,75,4.61,GB,1620282977
Nikel,69.4128,30.222,33.8,80,75,3.44,RU,1620282732
Omutninsk,58.67,52.1932,45.54,47,78,10.8,RU,1620282977
Broome,42.2506,-75.833,45.0,81,90,9.22,US,1620282977
Richards Bay,-28.783,32.0377,70.81,76,11,2.89,ZA,1620282978
Atar,20.5169,-13.0499,71.28,24,0,10.2,MR,1620282978
Pevek,69.7008,170.3133,32.43,75,100,2.64,RU,1620282978
Kroya,-7.6331,109.2461,85.39,69,100,9.86,ID,1620282978
Beringovskiy,63.05,179.3167,28.2,89,99,4.81,RU,1620282979
Manjacaze,-24.7117,33.8828,73.18,63,6,0.49,MZ,1620282979
Chone,-0.6833,-80.1,73.4,94,100,1.54,EC,1620282979
Ust-Tsilma,65.441,52.1498,35.24,73,100,10.6,RU,1620282979
Belmonte,-15.8631,-38.8828,71.6,94,75,3.44,BR,1620282980
Praia da Vitória,38.7333,-27.0667,62.6,94,40,11.1,PT,1620282980
Maykor,59.0059,55.88,40.91,63,98,14.58,RU,1620282980
Villafranca de los Barros,38.5614,-6.3381,55.0,84,50,1.01,ES,1620282980
Alyangula,-13.8483,136.4192,84.2,61,75,9.22,AU,1620282981
Ilulissat,69.2167,-51.1,28.4,80,75,3.44,GL,1620282981
Manggar,-2.8833,108.2667,86.09,66,22,8.63,ID,1620282981
Nikolskoye,59.7035,30.7861,42.8,93,90,8.95,RU,1620282981
Punta Alta,-38.8759,-62.0736,48.25,69,10,8.28,AR,1620282982
Tuy Hoa,13.0833,109.3,84.9,71,100,8.48,VN,1620282767
Gornozavodsk,58.3758,58.3211,40.51,71,94,14.72,RU,1620282982
Talcahuano,-36.7167,-73.1167,50.0,93,0,6.91,CL,1620282982
Mar del Plata,-38.0023,-57.5575,48.99,87,40,4.61,AR,1620282982
La Santisima Trinidad,-14.8333,-64.9,65.21,87,98,7.07,BO,1620282983
Khailār,25.35,78.5333,106.09,11,12,3.76,IN,1620282983
Sarkand,45.41,79.9186,83.16,22,7,5.82,KZ,1620282983
Tuktoyaktuk,69.4541,-133.0374,23.0,86,90,5.75,CA,1620282983
Mamit,23.9333,92.4833,87.8,58,75,3.44,IN,1620282983
Ciudad Bolivar,8.1222,-63.5497,75.43,86,100,8.81,VE,1620282984
Flinders,-34.5833,150.8552,68.0,92,100,5.99,AU,1620282984
Hamilton,39.1834,-84.5333,45.0,93,1,2.71,US,1620282984
Norman Wells,65.282,-126.8329,39.2,60,40,5.75,CA,1620282984
Cabo San Lucas,22.8909,-109.9124,70.0,38,1,1.01,MX,1620282985
Nyimba,-14.5566,30.8149,71.44,46,5,5.14,ZM,1620282985
Terrace Bay,48.7834,-87.1,33.8,93,33,1.14,CA,1620282985
Mossamedes,-15.1961,12.1522,74.16,82,65,1.57,AO,1620282973
Tungawan,7.5081,122.3711,89.1,58,100,5.08,PH,1620282985
São João da Barra,-21.6403,-41.0511,70.88,87,1,6.76,BR,1620282986
Labuhan,-6.8844,112.2051,86.32,65,85,6.29,ID,1620282986
Torbay,47.6666,-52.7314,39.99,87,90,10.36,CA,1620282928
Oranjemund,-28.55,16.4333,59.58,78,0,8.46,NA,1620282986
Gonbad-e Kāvūs,37.25,55.1672,64.4,82,75,6.91,IR,1620282986
Urucará,-2.5364,-57.76,70.03,98,62,1.81,BR,1620282987
Husainābād,24.5333,84.0167,100.58,19,89,6.76,IN,1620282987
Cumpas,29.9833,-109.7833,68.85,34,21,1.99,MX,1620282987
Eastbourne,50.7687,0.2845,42.01,90,100,4.0,GB,1620282987
São José do Belmonte,-7.8614,-38.7597,66.29,97,84,5.12,BR,1620282988
Racine,42.7495,-88.0751,45.0,70,100,1.57,US,1620282988
Gao,16.6362,1.637,92.34,13,100,10.65,ML,1620282988
Tuatapere,-46.1333,167.6833,52.0,95,93,1.99,NZ,1620282988
Dossor,47.5272,52.9811,63.16,27,40,10.22,KZ,1620282989
Betafo,-19.8333,46.85,69.66,57,0,5.41,MG,1620282989
Mattru,7.6244,-11.8332,75.22,93,84,2.37,SL,1620282989
Novyy Svit,47.8059,38.0211,60.73,49,62,12.75,UA,1620282989
Plácido de Castro,-10.3353,-67.1856,71.28,98,99,1.41,BR,1620282990
Havøysund,70.9963,24.6622,35.6,80,75,4.61,NO,1620282990
Muros,42.7762,-9.0603,60.01,89,100,7.0,ES,1620282990
Bengkulu,-3.8004,102.2655,82.09,74,93,3.0,ID,1620282990
Abnūb,27.2696,31.1511,98.13,10,0,3.83,EG,1620282990
Lydenburg,-25.0978,30.4597,53.01,81,100,0.58,ZA,1620282991
Brigantine,39.4101,-74.3646,54.0,82,1,8.05,US,1620282991
Kununurra,-15.7667,128.7333,93.2,26,5,10.36,AU,1620282970
Gobabis,-22.45,18.9667,64.96,36,86,9.69,NA,1620282991
Port Elizabeth,-33.918,25.5701,64.4,88,20,12.66,ZA,1620282991
Staraya Kulatka,52.7167,47.6167,60.15,51,10,10.87,RU,1620282992
Vanimo,-2.6741,141.3028,84.04,71,80,6.53,PG,1620282992
Dikson,73.5069,80.5464,27.54,85,100,10.6,RU,1620282992
Avdon,54.6667,55.7167,55.4,41,0,15.66,RU,1620282992
Arrondissement de Millau,44.0833,2.9167,51.01,81,90,4.61,FR,1620282993
Sioux Lookout,50.1001,-91.917,33.8,86,75,4.0,CA,1620282993
Okhotsk,59.3833,143.3,36.14,84,100,4.21,RU,1620282993
Siuna,13.7332,-84.7773,70.38,97,89,2.26,NI,1620282993
Ciudad General Terán,25.2667,-99.6833,70.97,87,94,7.05,MX,1620282994
Shubarkuduk,49.1447,56.4872,58.6,38,16,10.69,KZ,1620282994
Padang,-0.9492,100.3543,87.8,66,20,8.05,ID,1620282994
Caravelas,-17.7125,-39.2481,72.52,90,16,2.66,BR,1620282994
Laurel,39.0993,-76.8483,54.0,62,1,8.05,US,1620282801
Dingle,10.9995,122.6711,90.1,54,100,17.29,PH,1620282995
Cidreira,-30.1811,-50.2056,60.22,91,100,11.03,BR,1620282995
Ritchie,-29.038,24.6028,59.0,58,75,9.22,ZA,1620282995
Benemérito de las Américas,16.5167,-90.6439,72.43,98,100,1.61,MX,1620282995
Omsukchan,62.5333,155.8,32.23,79,98,2.64,RU,1620282995
Bethel,41.3712,-73.414,50.0,71,1,8.95,US,1620282996
Eilat,29.5581,34.9482,86.0,35,0,6.8,IL,1620282996
Kathu,7.9178,98.3332,89.01,70,20,6.91,TH,1620282996
Karatau,43.1667,70.4667,76.33,44,100,11.23,KZ,1620282996
Kargopol',61.5071,38.9456,41.29,67,100,7.94,RU,1620282997
Sur,22.5667,59.5289,91.45,50,17,4.65,OM,1620282997
Humaitá,-7.5061,-63.0208,71.83,98,22,2.1,BR,1620282997
Ostrovnoy,68.0531,39.5131,31.12,82,100,8.23,RU,1620282997
Chui,-33.6971,-53.4616,51.04,66,97,8.48,UY,1620282998
Auckland,-36.8667,174.7667,62.6,88,75,10.36,NZ,1620282854
Atikokan,48.7555,-91.6216,31.19,74,32,2.1,CA,1620282998
Lamu,-2.2717,40.902,78.8,87,100,13.04,KE,1620282998
Rawson,-43.3002,-65.1023,51.03,54,100,6.91,AR,1620282998
Faro,37.0194,-7.9322,60.8,63,0,2.3,PT,1620282971
Namatanai,-3.6667,152.4333,83.79,72,97,5.66,PG,1620282999
San Ignacio,17.1561,-89.0714,75.2,94,90,4.61,BZ,1620282999
Tabas,33.5959,56.9244,82.85,24,0,4.52,IR,1620282999
Horta,38.5333,-28.6333,62.6,94,75,18.41,PT,1620282999
Gisors,49.2818,1.7801,44.6,76,90,6.91,FR,1620283000
Nanortalik,60.1432,-45.2371,34.5,80,5,1.03,GL,1620283000
Santa Vitória do Palmar,-33.5189,-53.3681,48.9,70,87,9.19,BR,1620283000
Lüderitz,-26.6481,15.1594,60.3,64,0,11.23,NA,1620283000
Abashiri,44.0213,144.2697,69.8,23,40,14.97,JP,1620283001
Flin Flon,54.7682,-101.865,26.17,94,20,5.01,CA,1620283001
Jām Sāhib,26.2958,68.6292,96.8,30,5,9.22,PK,1620283001
Caibarién,22.5206,-79.4669,75.2,88,1,3.44,CU,1620283001
Robertsport,6.7533,-11.3686,80.89,81,100,8.43,LR,1620283001
Sørkjosen,69.8,20.9333,32.79,67,6,8.21,NO,1620283002
Codrington,-38.2667,141.9667,60.04,58,100,2.66,AU,1620283002
Kindu,-2.95,25.95,76.57,81,100,1.03,CD,1620283002
Marawi,7.9986,124.2928,84.0,84,100,11.01,PH,1620283002
Hualmay,-11.0964,-77.6139,65.68,89,67,5.66,PE,1620283003
Macapá,0.0389,-51.0664,75.2,100,0,6.91,BR,1620283003
Merauke,-8.4667,140.3333,84.22,68,5,16.8,ID,1620282788
Agüimes,27.9054,-15.4461,64.4,68,20,17.27,ES,1620282907
Gumrak,48.7826,44.3824,62.6,29,0,11.18,RU,1620283003
Thompson,55.7435,-97.8558,28.4,74,40,4.61,CA,1620283003
Fortuna,40.5982,-124.1573,52.0,100,90,3.29,US,1620282804
Igrim,63.1906,64.4162,36.86,88,100,18.07,RU,1620282736
Biak,-0.9131,122.8766,82.89,74,38,4.79,ID,1620283004
Chaumont,48.1167,5.1333,45.0,85,100,10.33,FR,1620283004
Valladolid,41.5833,-4.6667,52.0,71,97,6.67,ES,1620283004
Ketchikan,55.3422,-131.6461,50.0,76,90,4.61,US,1620283004
Pulandian,39.3953,121.9669,71.6,37,0,20.13,CN,1620283005
Nantucket,41.2835,-70.0995,48.2,93,90,9.22,US,1620283005
San Jerónimo,-11.9472,-75.2829,45.39,90,100,0.74,PE,1620283005
Sobolevo,54.4299,31.8996,48.74,91,100,21.7,RU,1620283005
Carutapera,-1.195,-46.02,72.3,94,75,1.95,BR,1620283006
Avilés,43.5547,-5.9248,64.0,63,75,13.8,ES,1620283006
Nizhneangarsk,55.7833,109.55,32.2,83,69,6.31,RU,1620283006
Bubaque,11.2833,-15.8333,77.72,64,7,12.73,GW,1620283006
Caraz,-9.0486,-77.81,60.84,84,82,1.32,PE,1620283007
Hulan Ergi,47.2042,123.6333,65.91,21,100,7.27,CN,1620283007
Fare,-16.7,-151.0167,82.42,74,6,12.48,PF,1620283007
Marabu,4.4148,114.0089,86.0,70,40,8.05,MY,1620283007
Makīnsk,52.6292,70.4169,65.97,42,91,16.33,KZ,1620283007
Mudgee,-32.5943,149.5871,68.0,64,90,11.5,AU,1620283008
Alofi,-19.0595,-169.9187,77.0,100,100,3.44,NU,1620283008
Sakaraha,-22.9,44.5333,72.09,60,4,4.43,MG,1620283008
Puerto Escondido,15.85,-97.0667,80.46,79,82,3.38,MX,1620283008
Fort Nelson,58.8053,-122.7002,55.4,35,75,9.22,CA,1620283009
Macheng,31.1783,115.0319,66.9,80,100,9.13,CN,1620283009
Filoti,37.05,25.5,69.8,60,0,4.61,GR,1620283009
Lubango,-14.9172,13.4925,62.56,82,47,1.57,AO,1620283009
Lompoc,34.6391,-120.4579,51.8,93,2,2.35,US,1620282969
Kayerkan,69.3497,87.7602,29.79,90,99,2.73,RU,1620283010
Nuwara Eliya,6.9708,80.7829,71.17,61,25,4.56,LK,1620282999
Manokwari,-0.8667,134.0833,83.53,71,60,3.85,ID,1620283010
Penzance,50.1186,-5.5371,41.0,87,75,14.97,GB,1620283010
Longyearbyen,78.2186,15.6401,17.6,67,20,14.97,SJ,1620283010
Sitka,57.0531,-135.33,51.8,58,90,10.36,US,1620283011
Farnes,61.3167,7.8,35.6,51,20,10.36,NO,1620283011
Luba,3.4568,8.5547,73.4,100,90,6.91,GQ,1620283011
Cherskiy,68.75,161.3,30.4,92,87,2.75,RU,1620283011
Trairi,-3.2778,-39.2689,71.38,94,100,4.36,BR,1620282858
Katsuura,35.1333,140.3,78.01,64,75,3.44,JP,1620283012
Camacha,33.0833,-16.3333,62.6,72,40,10.36,PT,1620283012
Road Town,18.4167,-64.6167,78.01,87,3,1.01,VG,1620283012
Vyazemskiy,47.5378,134.7525,60.06,46,100,10.94,RU,1620283012
Nohfelden,49.5869,7.1428,41.0,94,100,8.32,DE,1620283013
Mhango,-3.2833,32.85,72.54,70,97,7.67,TZ,1620283013
Chicama,-7.8447,-79.1469,66.4,87,97,5.99,PE,1620283013
Clyde River,70.4692,-68.5914,6.8,92,90,4.61,CA,1620283013
Águas Vermelhas,-15.7472,-41.46,59.9,97,100,1.59,BR,1620283014
Tigil',57.8,158.6667,38.77,50,0,14.23,RU,1620283014
Redmond,47.674,-122.1215,59.0,62,1,1.81,US,1620282766
Tazmalt,36.3868,4.3989,63.59,86,100,2.48,DZ,1620283014
Pervomayskoye,43.919,46.7102,64.8,35,21,18.12,RU,1620283014
Grafton,42.207,-71.6856,51.01,87,90,16.11,US,1620282899
Ararat,39.8317,44.7049,62.6,55,20,2.3,AM,1620283015
Quatre Cocos,-20.2078,57.7625,82.99,78,75,1.14,MU,1620283015
Batagay,67.6333,134.6333,39.34,79,100,4.76,RU,1620283015
Mitú,1.1983,-70.1733,71.56,97,99,0.2,CO,1620282801
Pecos,31.4229,-103.4932,69.8,40,1,10.36,US,1620283015
Hoquiam,46.9809,-123.8893,55.4,88,1,14.97,US,1620283016
Khoy,38.5504,44.9535,60.69,58,16,4.43,IR,1620283016
Nioro,13.35,-15.75,73.65,46,94,8.01,GM,1620283016
Tenabo,20.05,-90.2333,75.16,87,82,4.14,MX,1620283016
Morondava,-20.2833,44.2833,76.12,46,4,3.38,MG,1620283016
Coracora,-15.0333,-73.7833,47.89,78,100,0.83,PE,1620283017
Oakdale,44.963,-92.9649,43.0,87,1,9.22,US,1620282848
Te Anau,-45.4167,167.7167,48.11,90,0,2.26,NZ,1620283017
Port Macquarie,-31.4333,152.9167,68.0,80,78,12.01,AU,1620283017
San Matías,-16.3667,-58.4,62.01,75,19,7.54,BO,1620283017
Bull Savanna,17.8868,-77.5902,73.94,87,10,7.23,JM,1620283018
Avera,33.194,-82.5271,62.6,88,1,4.61,US,1620283018
North Bend,43.4065,-124.2243,48.99,100,20,5.08,US,1620283018
Nizhnevartovsk,60.9344,76.5531,62.6,42,0,13.42,RU,1620283018
Ganzhou,28.8184,115.4327,66.81,84,100,3.13,CN,1620283019
Bac Lieu,9.285,105.7244,90.05,57,100,20.15,VN,1620283019
Caetité,-14.0694,-42.475,63.93,75,100,6.91,BR,1620283019
Jiazi,22.8779,116.067,78.44,67,31,10.47,CN,1620283019
Rock Springs,41.5875,-109.2029,44.6,24,1,3.44,US,1620283020
Isangel,-19.55,169.2667,82.4,78,20,5.61,VU,1620283020
Palmer,42.1584,-72.3287,50.0,81,75,5.75,US,1620282849
Ballina,-28.8667,153.5667,69.8,78,46,9.22,AU,1620283020
Ilo,-17.6394,-71.3375,66.4,84,100,3.42,PE,1620283020
Moerai,-22.4333,-151.3333,74.84,67,100,11.74,PF,1620283020
Muravlenko,63.7898,74.523,52.12,78,100,19.93,RU,1620282914
Calabozo,8.9242,-67.4293,74.73,84,100,6.15,VE,1620283021
Ventspils,57.3894,21.5606,42.8,93,90,9.22,LV,1620283021
Iquique,-20.2208,-70.1431,59.0,88,0,3.44,CL,1620283021
Kawalu,-7.3817,108.2082,84.56,64,100,3.94,ID,1620283022
Talca,-35.4333,-71.6667,48.2,93,0,3.44,CL,1620282832
Rizhao,35.4275,119.4553,76.19,47,100,17.63,CN,1620283022
Syracuse,37.0881,15.2792,62.01,94,50,3.44,IT,1620283022
Sambava,-14.2667,50.1667,82.87,71,0,3.67,MG,1620283022
Batagay-Alyta,67.8006,130.4114,33.44,95,98,3.2,RU,1620283023
Comodoro Rivadavia,-45.8667,-67.5,46.4,66,0,5.75,AR,1620282829
Senador Guiomard,-10.1522,-67.7392,71.6,100,0,2.3,BR,1620283023
Port Hueneme,34.1478,-119.1951,57.2,100,90,4.61,US,1620282798
Panlaitan,12.1191,119.8486,87.8,65,100,12.26,PH,1620283023
Takoradze,4.8845,-1.7554,80.49,78,98,6.93,GH,1620283023
Mahanje,-9.9333,35.3333,66.85,75,100,2.19,TZ,1620283024
Zlobin,45.2924,14.6541,53.6,62,75,4.61,HR,1620283024
Liyang,29.7057,118.2862,62.55,94,100,0.94,CN,1620283024
Svetlaya,46.5389,138.3297,51.37,75,13,8.37,RU,1620283024
Garissa,-0.4536,39.6401,86.41,52,39,20.47,KE,1620283025
Ixtapa,20.7,-105.2,68.22,78,0,2.33,MX,1620282739
San Cristobal,7.7669,-72.225,66.78,97,100,0.76,VE,1620283025
Eirunepé,-6.6603,-69.8736,71.19,99,100,0.89,BR,1620283025
Brodnica,53.2597,19.3965,46.0,95,46,1.01,PL,1620283026
Charlottesville,38.0293,-78.4767,57.2,54,90,6.91,US,1620283026
Henties Bay,-22.116,14.2845,60.01,93,100,3.0,NA,1620283026
Ewo,-0.8725,14.8206,72.73,90,100,4.63,CG,1620283026
Abu Dhabi,24.4667,54.3667,87.8,62,53,4.61,AE,1620282939
Oistins,13.0667,-59.5333,75.2,73,75,18.41,BB,1620283027
Petropavlovsk-Kamchatskiy,53.0452,158.6483,41.0,81,100,15.66,RU,1620283027
Lagan,45.3929,47.3707,65.01,44,38,12.44,RU,1620283027
Ust'-Karsk,52.7011,118.8077,55.26,43,98,7.47,RU,1620283027
La Ronge,55.1001,-105.2842,33.8,51,3,5.75,CA,1620283027
Bandarbeyla,9.4942,50.8122,87.46,61,99,9.24,SO,1620283028
Makat,47.6469,53.3463,63.23,27,57,10.45,KZ,1620283028
Mikun',62.3547,50.0771,40.01,57,90,12.48,RU,1620283028
Iskar,43.45,24.2667,64.4,59,20,16.11,BG,1620283028
Yatou,37.15,122.3833,62.58,54,0,27.45,CN,1620283029
Cockburn Town,21.4612,-71.1419,78.58,74,6,18.95,TC,1620282802
Bagdarin,54.4333,113.6,51.22,29,100,7.87,RU,1620283029
Novy Urengoy,66.0833,76.6333,32.61,95,100,26.42,RU,1620283029
Yuanping,38.7153,112.7575,63.84,9,0,29.08,CN,1620283029
Santa Teresa del Tuy,10.2341,-66.6631,84.2,74,75,1.66,VE,1620283030
Vysokogornyy,50.1167,139.15,35.02,99,100,6.67,RU,1620283030
Talnakh,69.4865,88.3972,30.47,92,99,4.72,RU,1620282791
Melenki,55.3343,41.6295,58.28,63,100,14.25,RU,1620283030
Talara,-4.5772,-81.2719,71.51,77,78,13.13,PE,1620283030
Cabedelo,-6.9811,-34.8339,73.4,100,20,4.61,BR,1620283031
Regeneração,-6.2378,-42.6883,69.98,97,96,3.24,BR,1620283031
Balakliya,49.4627,36.8595,60.8,39,0,17.9,UA,1620283031
Zhigansk,66.7697,123.3711,37.53,76,56,13.56,RU,1620283031
Denpasar,-8.65,115.2167,87.8,74,20,12.66,ID,1620283032
Roald,62.5833,6.1333,46.0,57,0,14.97,NO,1620283032
Sisimiut,66.9395,-53.6735,30.58,73,91,3.76,GL,1620283032
Port Moresby,-9.4431,147.1797,86.0,70,20,9.22,PG,1620283032
Pindiga,9.9833,10.9333,81.03,61,100,16.06,NG,1620283033
Taltal,-25.4,-70.4833,63.21,62,0,1.88,CL,1620283033
Shaunavon,49.6501,-108.4181,33.8,93,100,5.75,CA,1620283033
Abdulino,53.7,53.6667,56.62,50,9,13.33,RU,1620283033
Pangnirtung,66.1451,-65.7125,22.55,84,18,6.96,CA,1620283034
Kenda,23.2,86.5333,93.2,49,95,2.3,IN,1620283034
Kizema,61.113,44.8302,43.57,53,39,5.14,RU,1620283034
Coyhaique,-45.5752,-72.0662,28.4,100,20,2.26,CL,1620283034
Sagua la Grande,22.8067,-80.0756,75.2,88,1,3.44,CU,1620283034
Verāval,20.9,70.3667,90.97,54,0,13.47,IN,1620282843
Ilhabela,-23.7781,-45.3581,68.5,84,7,4.92,BR,1620283035
Alibag,18.6411,72.8792,89.6,66,53,11.5,IN,1620283035
Kolosovka,56.4678,73.611,68.43,47,99,19.33,RU,1620283035
Lodja,-3.4833,23.4333,73.04,91,100,2.91,CD,1620283035
Alvdal,62.1077,10.6307,23.0,63,0,2.3,NO,1620283036
Muroto-misakicho,33.2833,134.15,69.8,68,75,6.91,JP,1620283036
Vostok,46.4856,135.8833,50.5,67,85,10.33,RU,1620283036
Yar-Sale,66.8333,70.8333,32.99,93,100,31.94,RU,1620283036
Leh,34.1667,77.5833,50.4,39,16,4.07,IN,1620283037
Montague,42.5356,-72.5351,48.0,95,48,8.21,US,1620283037
Cumana,10.4635,-64.1775,78.8,89,74,9.22,VE,1620283037
Thinadhoo,0.5333,72.9333,84.6,66,100,4.74,MV,1620283037
Mil'kovo,54.7167,158.6167,48.0,43,100,3.83,RU,1620282790
Vestmannaeyjar,63.4427,-20.2734,37.49,60,24,7.4,IS,1620283038
Marsabit,2.3284,37.9899,71.98,58,88,14.52,KE,1620283038
Jinzhou,41.1078,121.1417,66.4,45,3,24.07,CN,1620283038
Xapuri,-10.6517,-68.5044,71.46,97,99,1.41,BR,1620283038
Nuuk,64.1835,-51.7216,28.4,100,90,10.36,GL,1620283039
Cayenne,4.9333,-52.3333,78.01,100,90,2.3,GF,1620283039
Waipawa,-41.4122,175.5153,57.99,88,40,19.57,NZ,1620283039
Nushki,29.5542,66.0215,81.66,27,90,9.01,PK,1620283039
Yerbogachën,61.2767,108.0108,41.92,50,100,3.13,RU,1620283040
Waingapu,-9.6567,120.2641,84.94,58,24,11.88,ID,1620283040
Lichtenburg,-26.152,26.1597,64.38,33,0,8.08,ZA,1620283040
Eyemouth,55.8713,-2.0901,35.01,85,6,10.63,GB,1620283040
Itarema,-2.9248,-39.9167,72.73,88,95,5.57,BR,1620283040
Birao,10.2849,22.7882,88.3,41,16,5.84,CF,1620283041
Elko,41.0002,-115.5012,57.2,24,1,3.44,US,1620283041
Port-Gentil,-0.7193,8.7815,77.0,94,90,5.12,GA,1620283041
Bokoro,12.3807,17.0568,92.08,29,89,12.59,TD,1620283041
Chegdomyn,51.1167,133.0167,46.47,74,100,4.41,RU,1620283042
Deep River,46.1001,-77.4995,39.2,75,1,4.61,CA,1620283042
Bahile,9.9995,118.7878,91.4,70,20,18.41,PH,1620283042
Abalak,58.1286,68.5944,56.82,36,87,16.17,RU,1620283042
Lewiston,44.1003,-70.2148,44.6,100,90,2.77,US,1620282877
Moïssala,8.3404,17.7663,84.4,53,32,8.81,TD,1620283043
Jijiga,9.35,42.8,70.72,65,91,3.49,ET,1620283043
Yarmouth,41.7057,-70.2286,48.99,93,90,4.61,US,1620283043
Itoman,26.1247,127.6694,80.6,83,40,6.91,JP,1620283043
Alkhazurovo,43.06,45.64,59.0,58,0,15.66,RU,1620283044
Arman',59.7,150.1667,38.8,73,66,3.89,RU,1620283044
Port Hawkesbury,45.6169,-61.3485,39.99,87,90,11.5,CA,1620282878
Chikwawa,-16.0335,34.8009,66.2,68,20,10.36,MW,1620283044
Vershino-Shakhtaminskiy,51.3012,117.8868,50.81,34,100,6.49,RU,1620283044
Beloha,-25.1667,45.05,74.86,61,32,5.64,MG,1620283044
Salta,-24.7859,-65.4117,44.6,93,75,3.44,AR,1620282970
Kibakwe,-6.7167,36.3667,71.98,66,81,2.46,TZ,1620283045
Udachny,66.4167,112.4,36.86,96,100,7.9,RU,1620283045
Mount Isa,-20.7333,139.5,80.6,11,97,9.22,AU,1620283045
Pālampur,32.1167,76.5333,78.49,41,95,7.02,IN,1620283045
Seddon,-37.8068,144.8916,68.0,60,33,3.18,AU,1620283046
Coralville,41.6764,-91.5805,55.4,62,90,3.44,US,1620283046
Mackay,-21.15,149.2,71.6,56,86,6.91,AU,1620282917
Tieling,42.2931,123.8414,76.53,26,76,27.81,CN,1620283046
High Level,58.5169,-117.136,41.0,87,1,2.3,CA,1620283046
Srednekolymsk,67.45,153.6833,30.99,79,56,3.87,RU,1620283047
Jumla,29.2747,82.1838,58.57,71,100,5.73,NP,1620283047
Ishigaki,24.3448,124.1572,82.4,83,75,11.5,JP,1620283047
Ndélé,8.4109,20.6473,81.81,58,90,6.06,CF,1620283047
Maridi,4.9158,29.4742,69.55,86,100,5.39,SS,1620283047
Kushmurun,52.4503,64.6311,60.13,33,0,13.15,KZ,1620283048
Whyalla,-33.0333,137.5833,75.2,23,22,13.8,AU,1620283048
Raigarh,21.9,83.4,93.2,46,75,6.91,IN,1620283048
Shamary,57.3434,58.2199,42.12,64,99,13.22,RU,1620283048
Yarkovo,57.4028,67.0786,56.68,33,95,17.09,RU,1620283049
Ambilobe,-13.2,49.05,86.0,63,0,3.02,MG,1620283049
Äänekoski,62.6946,25.818,35.01,93,75,9.22,FI,1620283049
Dubovka,49.0583,44.829,62.6,29,0,11.18,RU,1620283049
Soe,-9.8607,124.284,77.0,60,44,7.83,ID,1620283050
Uttarkāshi,30.7333,78.45,77.95,40,100,4.56,IN,1620283050
Pacifica,37.6138,-122.4869,51.8,82,75,8.05,US,1620282807
Geraldton,-28.7667,114.6,75.2,57,90,13.8,AU,1620282862
Okato,-39.2,173.8833,55.0,86,13,5.99,NZ,1620283050
Conde,-7.2597,-34.9075,73.4,100,20,4.61,BR,1620283051
Tiznit Province,29.5833,-9.5,63.45,66,0,1.1,MA,1620283051
Ulladulla,-35.35,150.4667,64.4,100,90,14.97,AU,1620283004
Oudtshoorn,-33.5907,22.2014,57.2,100,90,4.61,ZA,1620283051
Beyneu,45.3167,55.2,62.96,27,100,12.57,KZ,1620283051
The Valley,18.217,-63.0578,78.8,78,75,11.5,AI,1620283052
Carolina,18.3808,-65.9574,77.0,78,20,10.36,PR,1620283052
Santa Rosa,14.3122,121.1114,93.2,52,40,10.36,PH,1620283052
Tricase,39.9304,18.3553,66.99,77,0,4.61,IT,1620283052
Puksoozero,62.5903,40.6066,39.87,62,91,3.47,RU,1620283053
Mitsamiouli,-11.3847,43.2844,81.36,66,60,12.77,KM,1620283053
Honiara,-9.4333,159.95,81.5,80,49,2.93,SB,1620283053
Turukhansk,65.8167,87.9833,37.29,51,100,6.98,RU,1620283053
Divo,5.8397,-5.36,74.52,96,96,3.27,CI,1620283053
Ancud,-41.8697,-73.8203,37.99,100,40,3.44,CL,1620283054
Bud,39.447,-86.1758,43.0,90,98,3.6,US,1620283054
Bafilo,9.35,1.2667,77.0,100,0,4.54,TG,1620283054
Dawlatabad,36.4141,64.9053,72.5,55,49,2.8,AF,1620283054
Cootamundra,-34.65,148.0333,71.01,56,83,4.0,AU,1620283055
Huarmey,-10.0681,-78.1522,66.85,87,92,5.57,PE,1620283055
Puerto del Rosario,28.5004,-13.8627,64.4,72,20,14.97,ES,1620283055
Tromsø,69.6496,18.957,35.6,60,0,5.75,NO,1620283055
Ntoum,0.3833,9.7833,77.09,88,97,3.15,GA,1620283056
Santo Domingo,18.5001,-69.9886,75.99,94,20,4.65,DO,1620283056
Charters Towers,-20.1,146.2667,73.87,23,64,9.4,AU,1620283056
Eureka,40.8021,-124.1637,51.01,86,4,1.99,US,1620282922
Rengāli,21.6333,84.05,93.2,46,75,6.91,IN,1620283056
Inhambane,-23.865,35.3833,69.8,83,20,4.61,MZ,1620283057
Tazovsky,67.4667,78.7,30.04,90,100,20.13,RU,1620283057
Mutoko,-17.397,32.2268,64.63,46,0,0.67,ZW,1620283057
Husavik,66.0449,-17.3389,32.0,86,90,12.66,IS,1620283057
Shelburne,44.0787,-80.2041,37.99,99,10,5.97,CA,1620283058
Ingham,42.6,-84.3833,37.99,87,90,3.47,US,1620283058
Asău,46.4333,26.4,62.01,34,100,7.9,RO,1620283058
Bābai,22.7,77.9333,106.79,9,6,8.77,IN,1620283058
Xai-Xai,-25.0519,33.6442,72.57,67,87,2.01,MZ,1620283059
Hannibal,39.7084,-91.3585,54.0,50,75,3.44,US,1620282960
Scarborough,54.2797,-0.4044,39.0,79,11,1.01,GB,1620283059
Muisne,0.6,-80.0333,76.39,88,100,6.17,EC,1620283059
Deputatsky,69.3,139.9,27.68,93,100,5.1,RU,1620283059
